{"pageProps":{"villages":[{"province":"Zamboanga del Norte","municipality":"Dapitan City","barangay":"Barcelona","association":"KP Purok Basak Barcelona Urban Association, Small Coconut Farmers Association, Barcelona Farmers Association","lat":"8.523156034","lon":"123.4616604","img":"/images/villages/zdn/kp_purok_barcelona.jpg"},{"municipality":"Mutia","province":"Zamboanga del Norte","img":"/images/villages/zdn/alvenda.jpg","lat":"8.344129545","barangay":"Alvenda","lon":"123.5359449","association":"Alvenda Farmers Association"},{"lon":"123.4314082","province":"Zamboanga del Norte","association":"Teresita SAAD Farmers Association, Teresita Vegetable Farmers Association","barangay":"Teresita","img":"/images/villages/zdn/teresita_saad.jpg","municipality":"Pinan","lat":"8.406646774"},{"barangay":"Don Jose Aguirre","lon":"123.1536735","association":"Sitio San Martin Gardeners Association,  Don Jose Aguirre Farmers Association,  Don Jose Aguirre GBU Farmers Association, Bernad Aguirre Communal Irrigators Association","lat":"8.522767959","municipality":"Manukan","img":"/images/villages/zdn/sitio_san_martin.jpg","province":"Zamboanga del Norte"},{"lon":"123.0232065","association":"Jose Dalman Corn Cluster Association","img":"/images/villages/zdn/jose_dalman_corn_cluster_assoc.jpg","municipality":"Jose Dalman","province":"Zamboanga del Norte","barangay":"Labakid","lat":"8.229305424"},{"association":"San Francisco EGBU Farmers Association","province":"Zamboanga del Norte","lon":"122.6792057","barangay":"San Francisco","img":"/images/villages/zdn/san_francisco_egbu.jpg","lat":"8.058550063","municipality":"Liloy"},{"img":"/images/villages/zdn/lawaan_egbu.jpg","lon":"122.6466763","barangay":"Lawaan","province":"Zamboanga del Norte","association":"Lawaan EGBU Farmers Association, Lawaan PhilMaize Corn Cluster Farmers Association","municipality":"Tampilisan","lat":"8.005990338"},{"lon":"122.5242409","province":"Zamboanga del Norte","lat":"7.994974007","municipality":"Labason","barangay":"Gabu","association":"Gabu EGBU Farmers Association, Barangay Gabu Subanen Farmers Association, Barangay Gabu Farmers Association","img":"/images/villages/zdn/gabu_egbu_farmers_assoc.jpg"},{"img":"/images/villages/zdn/siay_integrated.jpg","municipality":"Siocon","province":"Zamboanga del Norte","barangay":"Siay","association":"Siay Integrated Farmers Association","lat":"7.748566708","lon":"122.1724063"},{"barangay":"Litolet","province":"Zamboanga del Norte","association":"Litolet Consumers Cooperative","lat":"8.21190417","municipality":"Siayan","img":"/images/villages/zdn/litolet_consumers_cooperative.jpg","lon":"123.1723472"},{"municipality":"San Pablo","province":"Zamboanga del Sur","lon":"123.4082478","img":"/images/villages/zds/mabuhay.jpg","barangay":"Mabuhay","lat":"7.716205396","association":"Mabuhay Corn Cluster Beneficiaries Association"},{"association":"Maya-maya Organic Farmers Practitioner Association","barangay":"Maya-maya","lon":"123.5368399","province":"Zamboanga del Sur","img":"/images/villages/zds/mayamaya.jpg","lat":"8.155087563","municipality":"Tambulig"},{"lat":"7.519486714","municipality":"Dimataling","association":"Sugbay Uno Farmers Association","lon":"123.3325504","barangay":"Sugbay Uno","province":"Zamboanga del Sur","img":"/images/villages/zds/sugbay_uno.jpg"},{"province":"Zamboanga del Sur","municipality":"Tukuran","lat":"7.960516883","img":"/images/villages/zds/laperian.jpg","barangay":"Laperian","lon":"123.4471274","association":"Laperian Farmers Association"},{"barangay":"Lamare","municipality":"Bayog","lon":"123.0505272","img":"/images/villages/zds/lamare.jpg","province":"Zamboanga del Sur","association":"Lamare Farmers Association","lat":"7.827327322"},{"barangay":"La Victoria","lon":"122.9581509","municipality":"Imelda","lat":"7.670843491","province":"Zamboanga Sibugay","association":"La Victoria Subanen Farmers Association, Mali Little Baguio United Farmers Association","img":"/images/villages/zs/la_victoria.jpg"},{"lat":"7.669564503","lon":"122.944784","municipality":"Imelda","img":"/images/villages/zs/mali.jpg","association":"Mali Little Baguio United Farmers Associationi","province":"Zamboanga Sibugay","barangay":"Mali Little Baguio"},{"association":"Culasian Balik Probinsya Bagong Pag-asa Association","lon":"122.6194998","img":"/images/villages/zs/culasian.jpg","lat":"7.859002627","barangay":"Culasian","province":"Zamboanga Sibugay","municipality":"Titay"}],"media":{"description":"Agro-Climatic Advisory Portal-ZamPen (ACAP-ZamPen) serves as a centralized hub for the development of Climate Information Services (CIS) in the Region IX. It contains relevant weather and climate information which can be used in developing tailored advisories and crop recommendations.","url":"https://firebasestorage.googleapis.com/v0/b/acap-r9.appspot.com/o/og_home_1200.png?alt=media&token=df3f0cea-897c-4516-97c3-65b3aa0ff606","path":""}},"__N_SSG":true}