{"pageProps":{"villages":[{"img":"/images/villages/zdn/kp_purok_barcelona.jpg","province":"Zamboanga del Norte","municipality":"Dapitan City","lon":"123.4616604","barangay":"Barcelona","lat":"8.523156034","association":"KP Purok Basak Barcelona Urban Association, Small Coconut Farmers Association, Barcelona Farmers Association"},{"province":"Zamboanga del Norte","municipality":"Mutia","img":"/images/villages/zdn/alvenda.jpg","association":"Alvenda Farmers Association","barangay":"Alvenda","lon":"123.5359449","lat":"8.344129545"},{"lat":"8.406646774","association":"Teresita SAAD Farmers Association, Teresita Vegetable Farmers Association","lon":"123.4314082","barangay":"Teresita","province":"Zamboanga del Norte","municipality":"Pinan","img":"/images/villages/zdn/teresita_saad.jpg"},{"municipality":"Manukan","lon":"123.1536735","province":"Zamboanga del Norte","lat":"8.522767959","barangay":"Don Jose Aguirre","association":"Sitio San Martin Gardeners Association,  Don Jose Aguirre Farmers Association,  Don Jose Aguirre GBU Farmers Association, Bernad Aguirre Communal Irrigators Association","img":"/images/villages/zdn/sitio_san_martin.jpg"},{"img":"/images/villages/zdn/jose_dalman_corn_cluster_assoc.jpg","lon":"123.0232065","association":"Jose Dalman Corn Cluster Association","province":"Zamboanga del Norte","lat":"8.229305424","municipality":"Jose Dalman","barangay":"Labakid"},{"municipality":"Liloy","association":"San Francisco EGBU Farmers Association","province":"Zamboanga del Norte","barangay":"San Francisco","img":"/images/villages/zdn/san_francisco_egbu.jpg","lon":"122.6792057","lat":"8.058550063"},{"img":"/images/villages/zdn/lawaan_egbu.jpg","province":"Zamboanga del Norte","municipality":"Tampilisan","lon":"122.6466763","association":"Lawaan EGBU Farmers Association, Lawaan PhilMaize Corn Cluster Farmers Association","barangay":"Lawaan","lat":"8.005990338"},{"association":"Gabu EGBU Farmers Association, Barangay Gabu Subanen Farmers Association, Barangay Gabu Farmers Association","lon":"122.5242409","lat":"7.994974007","barangay":"Gabu","municipality":"Labason","img":"/images/villages/zdn/gabu_egbu_farmers_assoc.jpg","province":"Zamboanga del Norte"},{"lat":"7.748566708","img":"/images/villages/zdn/siay_integrated.jpg","association":"Siay Integrated Farmers Association","municipality":"Siocon","province":"Zamboanga del Norte","barangay":"Siay","lon":"122.1724063"},{"img":"/images/villages/zdn/litolet_consumers_cooperative.jpg","municipality":"Siayan","barangay":"Litolet","association":"Litolet Consumers Cooperative","lat":"8.21190417","province":"Zamboanga del Norte","lon":"123.1723472"},{"lon":"123.4082478","association":"Mabuhay Corn Cluster Beneficiaries Association","img":"/images/villages/zds/mabuhay.jpg","lat":"7.716205396","municipality":"San Pablo","province":"Zamboanga del Sur","barangay":"Mabuhay"},{"association":"Maya-maya Organic Farmers Practitioner Association","img":"/images/villages/zds/mayamaya.jpg","lat":"8.155087563","municipality":"Tambulig","province":"Zamboanga del Sur","lon":"123.5368399","barangay":"Maya-maya"},{"lat":"7.519486714","lon":"123.3325504","barangay":"Sugbay Uno","association":"Sugbay Uno Farmers Association","img":"/images/villages/zds/sugbay_uno.jpg","municipality":"Dimataling","province":"Zamboanga del Sur"},{"lon":"123.4471274","img":"/images/villages/zds/laperian.jpg","lat":"7.960516883","municipality":"Tukuran","barangay":"Laperian","province":"Zamboanga del Sur","association":"Laperian Farmers Association"},{"img":"/images/villages/zds/lamare.jpg","lat":"7.827327322","association":"Lamare Farmers Association","lon":"123.0505272","municipality":"Bayog","province":"Zamboanga del Sur","barangay":"Lamare"},{"association":"La Victoria Subanen Farmers Association, Mali Little Baguio United Farmers Association","province":"Zamboanga Sibugay","barangay":"La Victoria","municipality":"Imelda","lat":"7.670843491","lon":"122.9581509","img":"/images/villages/zs/la_victoria.jpg"},{"lat":"7.669564503","municipality":"Imelda","barangay":"Mali Little Baguio","lon":"122.944784","association":"Mali Little Baguio United Farmers Associationi","province":"Zamboanga Sibugay","img":"/images/villages/zs/mali.jpg"},{"association":"Culasian Balik Probinsya Bagong Pag-asa Association","lat":"7.859002627","barangay":"Culasian","province":"Zamboanga Sibugay","img":"/images/villages/zs/culasian.jpg","municipality":"Titay","lon":"122.6194998"}],"media":{"description":"Agro-Climatic Advisory Portal-ZamPen (ACAP-ZamPen) serves as a centralized hub for the development of Climate Information Services (CIS) in the Region IX. It contains relevant weather and climate information which can be used in developing tailored advisories and crop recommendations.","url":"https://firebasestorage.googleapis.com/v0/b/acap-r9.appspot.com/o/og_home_1200.png?alt=media&token=df3f0cea-897c-4516-97c3-65b3aa0ff606","path":""}},"__N_SSG":true}