{"pageProps":{"villages":[{"barangay":"Siay","municipality":"Siocon","association":"Cagbunga Riverside Farmers Organization","lat":"7.74891737","province":"Zamboanga del Norte","lon":"122.1540316"},{"barangay":"Gabu","association":"TARBA (Tampadong Agrarian Reform Beneficiaries Association)","province":"Zamboanga del Norte","lat":"8.01275318","lon":"122.5250454","municipality":"Labason"},{"association":" VEVUFAI (Veneracion Urban Farmers Assocaition,Inc.)","lat":"7.91574498","province":"Zamboanga Sibugay","municipality":"Titay","barangay":"Culasian","lon":"122.6270238"},{"association":"Joroan Farmers and Fisherfollks Association","lat":"7.99547943","lon":"122.6458093","province":"Zamboanga del Norte","barangay":"Lawaan","municipality":"Tampilisan"},{"lat":"8.06058434","association":"Paracale Corn and Cassava Farmers Association","lon":"122.686064","province":"Zamboanga del Norte","barangay":"San Francisco","municipality":"Liloy"},{"municipality":"Jose Dalman","province":"Zamboanga del Norte","barangay":"Labakid","lon":"123.0228613","association":"Cabibiroc-Alayao Farmers Association (CAFA)","lat":"8.38595015"},{"lon":"123.1718035","association":"AMIA (Asenso Marigondon Irrigators Association)","barangay":"Litolet","municipality":"Siayan","province":"Zamboanga del Norte","lat":"8.22794868"},{"association":"Peï¿½afrancia Farmers and Fisherfolks Association","barangay":"Don Jose Aguirre","province":"Zamboanga del Norte","lat":"8.51336678","municipality":"Manukan","lon":"123.138258"},{"lat":"8.52663691","municipality":"Dapitan City","barangay":"Barcelona","lon":"123.4495606","association":"Biong Farmers Association","province":"Zamboanga del Norte"},{"barangay":"Teresita","lon":"123.5086008","lat":"8.34546005","municipality":"Pinan","association":"San Mateo Farmers Association","province":"Zamboanga del Norte"},{"municipality":"Mutia","lon":"123.5535518","province":"Zamboanga del Norte","barangay":"Alvenda","lat":"8.334839","association":" Quezon Small Farmers Association MaQueba (Magsaysay,Quezon and Badling"},{"lon":"123.5455009","lat":"8.1542373","barangay":"Maya-maya","province":"Zamboanga del Sur","municipality":"Tambulig","association":"Alas Farmers Association"},{"province":"Zamboanga del Sur","lon":"123.4301042","association":"San Isidro Farmers Association","barangay":"Laperian","municipality":"Tukuran","lat":"7.96956744"},{"association":"Dinapa Farmers Association","municipality":"San Pablo","lat":"7.71434716","province":"Zamboanga del Sur","lon":"123.3992423","barangay":"Mabuhay"},{"barangay":"Sugbay Uno","province":"Zamboanga del Sur","lat":"7.51085795","municipality":"Dimataling","lon":"123.3241003","association":"Sugbay Uno Farmers Association"},{"lon":"123.0356086","province":"Zamboanga del Sur","association":"Lamare Farmers Association","barangay":"Lamare","municipality":"Bayog","lat":"7.82735461"},{"association":"Little Baguio Farmers Association","province":"Zamboanga Sibugay","lon":"122.9792521","barangay":"Little Baguio","municipality":"Imelda","lat":"7.66514623"},{"lon":"122.9510738","province":"Zamboanga Sibugay","lat":"7.67977413","municipality":"Imelda","barangay":"La Victoria","association":"La Victoria Farmers Association"},{"municipality":"Mahayag","lat":"8.22861269","association":"Pedagan Farmers Associaiton","province":"Zamboanga del Sur","lon":"123.4287624","barangay":"Pedagan"},{"municipality":"Buug","association":"Guminta Farmers Association","lon":"123.0805596","barangay":"Guminta","province":"Zamboanga del Sur","lat":"7.73362705"}],"provincesMunicipalities":[{"municipalities":[{"label":"Bacungan","disabled":true,"id":0},{"disabled":true,"id":1,"label":"Baliguian"},{"label":"Dapitan City","disabled":true,"id":2},{"label":"Dipolog City","id":3,"disabled":true},{"label":"Godod","disabled":true,"id":4},{"disabled":true,"id":5,"label":"Gutalac"},{"label":"Jose Dalman","id":6,"disabled":true},{"disabled":true,"label":"Kalawit","id":7},{"id":8,"label":"Katipunan","disabled":true},{"label":"La Libertad","id":9,"disabled":true},{"id":10,"label":"Labason","disabled":true},{"id":11,"disabled":true,"label":"Liloy"},{"disabled":true,"label":"Manukan","id":12},{"disabled":true,"label":"Mutia","id":13},{"id":14,"label":"Pinan","disabled":true},{"disabled":true,"label":"Polanco","id":15},{"id":16,"label":"Pres. Manuel A. Roxas","disabled":true},{"disabled":true,"id":17,"label":"Rizal"},{"disabled":true,"id":18,"label":"Salug"},{"label":"Siayan","disabled":true,"id":19},{"label":"Sibuco","disabled":true,"id":20},{"disabled":true,"label":"Sibutad","id":21},{"id":22,"label":"Sindangan","disabled":true},{"disabled":true,"label":"Siocon","id":23},{"disabled":true,"label":"Sirawai","id":24},{"id":25,"label":"Tampilisan","disabled":true}],"id":0,"label":"Zamboanga del Norte","disabled":false},{"label":"Zamboanga del Sur","disabled":false,"municipalities":[{"label":"Aurora","disabled":true,"id":0},{"id":1,"disabled":true,"label":"Bayog"},{"disabled":true,"label":"Dimataling","id":2},{"disabled":true,"label":"Dinas","id":3},{"label":"Dumalinao","id":4,"disabled":true},{"id":5,"label":"Dumingag","disabled":true},{"label":"Guipos","disabled":true,"id":6},{"label":"Josefina","disabled":true,"id":7},{"id":8,"disabled":true,"label":"Kumalarang"},{"label":"Labangan","disabled":true,"id":9},{"disabled":true,"label":"Lakewood","id":10},{"disabled":true,"label":"Lapuyan","id":11},{"label":"Mahayag","disabled":true,"id":12},{"label":"Margosatubig","id":13,"disabled":true},{"disabled":true,"label":"Midsalip","id":14},{"id":15,"label":"Molave","disabled":true},{"disabled":true,"id":16,"label":"Pagadian City"},{"id":17,"disabled":true,"label":"Pitogo"},{"disabled":true,"id":18,"label":"Ramon Magsaysay"},{"id":19,"label":"San Miguel","disabled":true},{"disabled":true,"label":"San Pablo","id":20},{"label":"Sominot","disabled":true,"id":21},{"label":"Tabina","id":22,"disabled":true},{"id":23,"disabled":true,"label":"Tambulig"},{"disabled":true,"id":24,"label":"Tigbao"},{"id":25,"label":"Tukuran","disabled":true},{"label":"Vincenzo A. Sagun","id":26,"disabled":true},{"id":27,"label":"Zamboanga City","disabled":true}],"id":1},{"municipalities":[{"id":0,"label":"Alicia","disabled":true},{"label":"Buug","id":1,"disabled":true},{"label":"Diplahan","disabled":true,"id":2},{"id":3,"disabled":true,"label":"Imelda"},{"label":"Ipil","disabled":true,"id":4},{"label":"Kabasalan","id":5,"disabled":true},{"disabled":true,"id":6,"label":"Mabuhay"},{"id":7,"label":"Malangas","disabled":true},{"label":"Naga","disabled":true,"id":8},{"id":9,"disabled":true,"label":"Olutanga"},{"label":"Payao","disabled":true,"id":10},{"id":11,"disabled":true,"label":"Roseller Lim"},{"disabled":true,"id":12,"label":"Siay"},{"label":"Talusan","id":13,"disabled":true},{"disabled":true,"label":"Titay","id":14},{"disabled":true,"id":15,"label":"Tungawan"}],"disabled":false,"id":2,"label":"Zamboanga Sibugay"}],"media":{"description":"Agro-Climatic Advisory Portal-Bicol (ACAP-BICOL) serves as a centralized hub for the development of Climate Information Services (CIS) in the Bicol Region. It contains relevant weather and climate information which can be used in developing tailored advisories and crop recommendations.","url":"https://firebasestorage.googleapis.com/v0/b/amia-cis-dev.appspot.com/o/media%2Fimages%2Fopengraph%2F1200x600%2Fog_home_1200.png?alt=media&token=51f9241c-45da-456e-9906-677c2f8fe93a","path":""}},"__N_SSG":true}