{"pageProps":{"villages":[{"img":"/images/villages/zdn/kp_purok_barcelona.jpg","province":"Zamboanga del Norte","lat":"8.523156034","municipality":"Dapitan City","association":"KP Purok Basak Barcelona Urban Association, Small Coconut Farmers Association, Barcelona Farmers Association","barangay":"Barcelona","lon":"123.4616604"},{"barangay":"Alvenda","img":"/images/villages/zdn/alvenda.jpg","association":"Alvenda Farmers Association","province":"Zamboanga del Norte","municipality":"Mutia","lat":"8.344129545","lon":"123.5359449"},{"lon":"123.4314082","img":"/images/villages/zdn/teresita_saad.jpg","association":"Teresita SAAD Farmers Association, Teresita Vegetable Farmers Association","municipality":"Pinan","barangay":"Teresita","province":"Zamboanga del Norte","lat":"8.406646774"},{"barangay":"Don Jose Aguirre","province":"Zamboanga del Norte","lon":"123.1536735","municipality":"Manukan","lat":"8.522767959","association":"Sitio San Martin Gardeners Association,  Don Jose Aguirre Farmers Association,  Don Jose Aguirre GBU Farmers Association, Bernad Aguirre Communal Irrigators Association","img":"/images/villages/zdn/sitio_san_martin.jpg"},{"municipality":"Jose Dalman","province":"Zamboanga del Norte","img":"/images/villages/zdn/jose_dalman_corn_cluster_assoc.jpg","barangay":"Labakid","association":"Jose Dalman Corn Cluster Association","lat":"8.229305424","lon":"123.0232065"},{"lon":"122.6792057","img":"/images/villages/zdn/san_francisco_egbu.jpg","barangay":"San Francisco","association":"San Francisco EGBU Farmers Association","province":"Zamboanga del Norte","lat":"8.058550063","municipality":"Liloy"},{"barangay":"Lawaan","lat":"8.005990338","lon":"122.6466763","municipality":"Tampilisan","association":"Lawaan EGBU Farmers Association, Lawaan PhilMaize Corn Cluster Farmers Association","img":"/images/villages/zdn/lawaan_egbu.jpg","province":"Zamboanga del Norte"},{"municipality":"Labason","lon":"122.5242409","province":"Zamboanga del Norte","lat":"7.994974007","img":"/images/villages/zdn/gabu_egbu_farmers_assoc.jpg","barangay":"Gabu","association":"Gabu EGBU Farmers Association, Barangay Gabu Subanen Farmers Association, Barangay Gabu Farmers Association"},{"association":"Siay Integrated Farmers Association","lat":"7.748566708","lon":"122.1724063","province":"Zamboanga del Norte","municipality":"Siocon","barangay":"Siay","img":"/images/villages/zdn/siay_integrated.jpg"},{"barangay":"Litolet","municipality":"Siayan","img":"/images/villages/zdn/litolet_consumers_cooperative.jpg","province":"Zamboanga del Norte","lat":"8.21190417","association":"Litolet Consumers Cooperative","lon":"123.1723472"},{"municipality":"San Pablo","lon":"123.4082478","lat":"7.716205396","province":"Zamboanga del Sur","img":"/images/villages/zds/mabuhay.jpg","association":"Mabuhay Corn Cluster Beneficiaries Association","barangay":"Mabuhay"},{"img":"/images/villages/zds/mayamaya.jpg","lat":"8.155087563","association":"Maya-maya Organic Farmers Practitioner Association","barangay":"Maya-maya","municipality":"Tambulig","lon":"123.5368399","province":"Zamboanga del Sur"},{"association":"Sugbay Uno Farmers Association","lat":"7.519486714","lon":"123.3325504","img":"/images/villages/zds/sugbay_uno.jpg","barangay":"Sugbay Uno","municipality":"Dimataling","province":"Zamboanga del Sur"},{"lon":"123.4471274","association":"Laperian Farmers Association","lat":"7.960516883","barangay":"Laperian","img":"/images/villages/zds/laperian.jpg","province":"Zamboanga del Sur","municipality":"Tukuran"},{"lat":"7.827327322","lon":"123.0505272","img":"/images/villages/zds/lamare.jpg","barangay":"Lamare","municipality":"Bayog","association":"Lamare Farmers Association","province":"Zamboanga del Sur"},{"img":"/images/villages/zs/la_victoria.jpg","province":"Zamboanga Sibugay","barangay":"La Victoria","association":"La Victoria Subanen Farmers Association, Mali Little Baguio United Farmers Association","lat":"7.670843491","lon":"122.9581509","municipality":"Imelda"},{"association":"Mali Little Baguio United Farmers Associationi","img":"/images/villages/zs/mali.jpg","province":"Zamboanga Sibugay","lat":"7.669564503","barangay":"Mali Little Baguio","lon":"122.944784","municipality":"Imelda"},{"lon":"122.6194998","association":"Culasian Balik Probinsya Bagong Pag-asa Association","img":"/images/villages/zs/culasian.jpg","province":"Zamboanga Sibugay","municipality":"Titay","barangay":"Culasian","lat":"7.859002627"}],"media":{"description":"Agro-Climatic Advisory Portal-ZamPen (ACAP-ZamPen) serves as a centralized hub for the development of Climate Information Services (CIS) in the Region IX. It contains relevant weather and climate information which can be used in developing tailored advisories and crop recommendations.","url":"https://firebasestorage.googleapis.com/v0/b/acap-r9.appspot.com/o/og_home_1200.png?alt=media&token=df3f0cea-897c-4516-97c3-65b3aa0ff606","path":""}},"__N_SSG":true}